[
  {"iata": "ATL", "name": "Hartsfield-Jackson Atlanta International Airport", "city": "Atlanta", "country": "United States", "lat": 33.6407, "lng": -84.4277},
  {"iata": "PEK", "name": "Beijing Capital International Airport", "city": "Beijing", "country": "China", "lat": 40.0799, "lng": 116.6031},
  {"iata": "DXB", "name": "Dubai International Airport", "city": "Dubai", "country": "United Arab Emirates", "lat": 25.2532, "lng": 55.3657},
  {"iata": "LAX", "name": "Los Angeles International Airport", "city": "Los Angeles", "country": "United States", "lat": 33.9425, "lng": -118.4081},
  {"iata": "HND", "name": "Tokyo Haneda Airport", "city": "Tokyo", "country": "Japan", "lat": 35.5494, "lng": 139.7798},
  {"iata": "ORD", "name": "O'Hare International Airport", "city": "Chicago", "country": "United States", "lat": 41.9742, "lng": -87.9073},
  {"iata": "LHR", "name": "Heathrow Airport", "city": "London", "country": "United Kingdom", "lat": 51.4700, "lng": -0.4543},
  {"iata": "PVG", "name": "Shanghai Pudong International Airport", "city": "Shanghai", "country": "China", "lat": 31.1443, "lng": 121.8083},
  {"iata": "CDG", "name": "Charles de Gaulle Airport", "city": "Paris", "country": "France", "lat": 49.0097, "lng": 2.5479},
  {"iata": "DFW", "name": "Dallas/Fort Worth International Airport", "city": "Dallas", "country": "United States", "lat": 32.8998, "lng": -97.0403},
  {"iata": "CAN", "name": "Guangzhou Baiyun International Airport", "city": "Guangzhou", "country": "China", "lat": 23.3924, "lng": 113.2988},
  {"iata": "AMS", "name": "Amsterdam Airport Schiphol", "city": "Amsterdam", "country": "Netherlands", "lat": 52.3105, "lng": 4.7683},
  {"iata": "FRA", "name": "Frankfurt Airport", "city": "Frankfurt", "country": "Germany", "lat": 50.0379, "lng": 8.5622},
  {"iata": "IST", "name": "Istanbul Airport", "city": "Istanbul", "country": "Turkey", "lat": 41.2608, "lng": 28.7418},
  {"iata": "SIN", "name": "Singapore Changi Airport", "city": "Singapore", "country": "Singapore", "lat": 1.3644, "lng": 103.9915},
  {"iata": "DEN", "name": "Denver International Airport", "city": "Denver", "country": "United States", "lat": 39.8561, "lng": -104.6737},
  {"iata": "ICN", "name": "Incheon International Airport", "city": "Seoul", "country": "South Korea", "lat": 37.4602, "lng": 126.4407},
  {"iata": "BKK", "name": "Suvarnabhumi Airport", "city": "Bangkok", "country": "Thailand", "lat": 13.6900, "lng": 100.7501},
  {"iata": "JFK", "name": "John F. Kennedy International Airport", "city": "New York", "country": "United States", "lat": 40.6413, "lng": -73.7781},
  {"iata": "HKG", "name": "Hong Kong International Airport", "city": "Hong Kong", "country": "Hong Kong", "lat": 22.3080, "lng": 113.9185},
  {"iata": "KUL", "name": "Kuala Lumpur International Airport", "city": "Kuala Lumpur", "country": "Malaysia", "lat": 2.7456, "lng": 101.7099},
  {"iata": "MAD", "name": "Adolfo Suárez Madrid–Barajas Airport", "city": "Madrid", "country": "Spain", "lat": 40.4983, "lng": -3.5676},
  {"iata": "SFO", "name": "San Francisco International Airport", "city": "San Francisco", "country": "United States", "lat": 37.6213, "lng": -122.3790},
  {"iata": "CTU", "name": "Chengdu Shuangliu International Airport", "city": "Chengdu", "country": "China", "lat": 30.5785, "lng": 103.9471},
  {"iata": "SEA", "name": "Seattle-Tacoma International Airport", "city": "Seattle", "country": "United States", "lat": 47.4502, "lng": -122.3088},
  {"iata": "PHX", "name": "Phoenix Sky Harbor International Airport", "city": "Phoenix", "country": "United States", "lat": 33.4373, "lng": -112.0078},
  {"iata": "CLT", "name": "Charlotte Douglas International Airport", "city": "Charlotte", "country": "United States", "lat": 35.2140, "lng": -80.9431},
  {"iata": "MIA", "name": "Miami International Airport", "city": "Miami", "country": "United States", "lat": 25.7959, "lng": -80.2870},
  {"iata": "IAH", "name": "George Bush Intercontinental Airport", "city": "Houston", "country": "United States", "lat": 29.9902, "lng": -95.3368},
  {"iata": "MCO", "name": "Orlando International Airport", "city": "Orlando", "country": "United States", "lat": 28.4312, "lng": -81.3081},
  {"iata": "EWR", "name": "Newark Liberty International Airport", "city": "Newark", "country": "United States", "lat": 40.6895, "lng": -74.1745},
  {"iata": "MSP", "name": "Minneapolis–Saint Paul International Airport", "city": "Minneapolis", "country": "United States", "lat": 44.8848, "lng": -93.2223},
  {"iata": "BOS", "name": "Boston Logan International Airport", "city": "Boston", "country": "United States", "lat": 42.3656, "lng": -71.0096},
  {"iata": "DTW", "name": "Detroit Metropolitan Airport", "city": "Detroit", "country": "United States", "lat": 42.2162, "lng": -83.3554},
  {"iata": "LGA", "name": "LaGuardia Airport", "city": "New York", "country": "United States", "lat": 40.7769, "lng": -73.8740},
  {"iata": "PHL", "name": "Philadelphia International Airport", "city": "Philadelphia", "country": "United States", "lat": 39.8729, "lng": -75.2437},
  {"iata": "FLL", "name": "Fort Lauderdale–Hollywood International Airport", "city": "Fort Lauderdale", "country": "United States", "lat": 26.0742, "lng": -80.1506},
  {"iata": "BWI", "name": "Baltimore/Washington International Airport", "city": "Baltimore", "country": "United States", "lat": 39.1774, "lng": -76.6684},
  {"iata": "DCA", "name": "Ronald Reagan Washington National Airport", "city": "Washington D.C.", "country": "United States", "lat": 38.8521, "lng": -77.0402},
  {"iata": "SLC", "name": "Salt Lake City International Airport", "city": "Salt Lake City", "country": "United States", "lat": 40.7899, "lng": -111.9791},
  {"iata": "IAD", "name": "Washington Dulles International Airport", "city": "Washington D.C.", "country": "United States", "lat": 38.9531, "lng": -77.4565},
  {"iata": "SAN", "name": "San Diego International Airport", "city": "San Diego", "country": "United States", "lat": 32.7336, "lng": -117.1897},
  {"iata": "TPA", "name": "Tampa International Airport", "city": "Tampa", "country": "United States", "lat": 27.9755, "lng": -82.5332},
  {"iata": "PDX", "name": "Portland International Airport", "city": "Portland", "country": "United States", "lat": 45.5898, "lng": -122.5951},
  {"iata": "HNL", "name": "Daniel K. Inouye International Airport", "city": "Honolulu", "country": "United States", "lat": 21.3245, "lng": -157.9251},
  {"iata": "STL", "name": "St. Louis Lambert International Airport", "city": "St. Louis", "country": "United States", "lat": 38.7487, "lng": -90.3700},
  {"iata": "BNA", "name": "Nashville International Airport", "city": "Nashville", "country": "United States", "lat": 36.1263, "lng": -86.6774},
  {"iata": "AUS", "name": "Austin-Bergstrom International Airport", "city": "Austin", "country": "United States", "lat": 30.1975, "lng": -97.6664},
  {"iata": "MCI", "name": "Kansas City International Airport", "city": "Kansas City", "country": "United States", "lat": 39.2976, "lng": -94.7139},
  {"iata": "RDU", "name": "Raleigh-Durham International Airport", "city": "Raleigh", "country": "United States", "lat": 35.8801, "lng": -78.7880},
  {"iata": "FCO", "name": "Leonardo da Vinci–Fiumicino Airport", "city": "Rome", "country": "Italy", "lat": 41.8003, "lng": 12.2389},
  {"iata": "MUC", "name": "Munich Airport", "city": "Munich", "country": "Germany", "lat": 48.3537, "lng": 11.7750},
  {"iata": "BCN", "name": "Barcelona–El Prat Airport", "city": "Barcelona", "country": "Spain", "lat": 41.2974, "lng": 2.0833},
  {"iata": "LGW", "name": "Gatwick Airport", "city": "London", "country": "United Kingdom", "lat": 51.1537, "lng": -0.1821},
  {"iata": "SYD", "name": "Sydney Kingsford Smith Airport", "city": "Sydney", "country": "Australia", "lat": -33.9399, "lng": 151.1753},
  {"iata": "MEL", "name": "Melbourne Airport", "city": "Melbourne", "country": "Australia", "lat": -37.6690, "lng": 144.8410},
  {"iata": "BNE", "name": "Brisbane Airport", "city": "Brisbane", "country": "Australia", "lat": -27.3942, "lng": 153.1218},
  {"iata": "AKL", "name": "Auckland Airport", "city": "Auckland", "country": "New Zealand", "lat": -37.0082, "lng": 174.7850},
  {"iata": "DEL", "name": "Indira Gandhi International Airport", "city": "New Delhi", "country": "India", "lat": 28.5562, "lng": 77.1000},
  {"iata": "BOM", "name": "Chhatrapati Shivaji Maharaj International Airport", "city": "Mumbai", "country": "India", "lat": 19.0896, "lng": 72.8656},
  {"iata": "BLR", "name": "Kempegowda International Airport", "city": "Bangalore", "country": "India", "lat": 13.1986, "lng": 77.7066},
  {"iata": "MAA", "name": "Chennai International Airport", "city": "Chennai", "country": "India", "lat": 12.9941, "lng": 80.1709},
  {"iata": "CCU", "name": "Netaji Subhas Chandra Bose International Airport", "city": "Kolkata", "country": "India", "lat": 22.6520, "lng": 88.4463},
  {"iata": "NRT", "name": "Narita International Airport", "city": "Tokyo", "country": "Japan", "lat": 35.7720, "lng": 140.3929},
  {"iata": "KIX", "name": "Kansai International Airport", "city": "Osaka", "country": "Japan", "lat": 34.4320, "lng": 135.2304},
  {"iata": "GRU", "name": "São Paulo/Guarulhos International Airport", "city": "São Paulo", "country": "Brazil", "lat": -23.4356, "lng": -46.4731},
  {"iata": "GIG", "name": "Rio de Janeiro/Galeão International Airport", "city": "Rio de Janeiro", "country": "Brazil", "lat": -22.8099, "lng": -43.2505},
  {"iata": "MEX", "name": "Mexico City International Airport", "city": "Mexico City", "country": "Mexico", "lat": 19.4361, "lng": -99.0719},
  {"iata": "CUN", "name": "Cancún International Airport", "city": "Cancún", "country": "Mexico", "lat": 21.0365, "lng": -86.8771},
  {"iata": "BOG", "name": "El Dorado International Airport", "city": "Bogotá", "country": "Colombia", "lat": 4.7016, "lng": -74.1469},
  {"iata": "LIM", "name": "Jorge Chávez International Airport", "city": "Lima", "country": "Peru", "lat": -12.0219, "lng": -77.1143},
  {"iata": "SCL", "name": "Arturo Merino Benítez International Airport", "city": "Santiago", "country": "Chile", "lat": -33.3930, "lng": -70.7858},
  {"iata": "EZE", "name": "Ministro Pistarini International Airport", "city": "Buenos Aires", "country": "Argentina", "lat": -34.8222, "lng": -58.5358},
  {"iata": "JNB", "name": "O.R. Tambo International Airport", "city": "Johannesburg", "country": "South Africa", "lat": -26.1392, "lng": 28.2460},
  {"iata": "CPT", "name": "Cape Town International Airport", "city": "Cape Town", "country": "South Africa", "lat": -33.9648, "lng": 18.6017},
  {"iata": "CAI", "name": "Cairo International Airport", "city": "Cairo", "country": "Egypt", "lat": 30.1219, "lng": 31.4056},
  {"iata": "ADD", "name": "Addis Ababa Bole International Airport", "city": "Addis Ababa", "country": "Ethiopia", "lat": 8.9779, "lng": 38.7993},
  {"iata": "NBO", "name": "Jomo Kenyatta International Airport", "city": "Nairobi", "country": "Kenya", "lat": -1.3192, "lng": 36.9278},
  {"iata": "LOS", "name": "Murtala Muhammed International Airport", "city": "Lagos", "country": "Nigeria", "lat": 6.5774, "lng": 3.3212},
  {"iata": "CMN", "name": "Mohammed V International Airport", "city": "Casablanca", "country": "Morocco", "lat": 33.3675, "lng": -7.5900},
  {"iata": "DOH", "name": "Hamad International Airport", "city": "Doha", "country": "Qatar", "lat": 25.2609, "lng": 51.6138},
  {"iata": "AUH", "name": "Abu Dhabi International Airport", "city": "Abu Dhabi", "country": "United Arab Emirates", "lat": 24.4330, "lng": 54.6511},
  {"iata": "RUH", "name": "King Khalid International Airport", "city": "Riyadh", "country": "Saudi Arabia", "lat": 24.9576, "lng": 46.6988},
  {"iata": "JED", "name": "King Abdulaziz International Airport", "city": "Jeddah", "country": "Saudi Arabia", "lat": 21.6796, "lng": 39.1565},
  {"iata": "TLV", "name": "Ben Gurion Airport", "city": "Tel Aviv", "country": "Israel", "lat": 32.0055, "lng": 34.8854},
  {"iata": "DUB", "name": "Dublin Airport", "city": "Dublin", "country": "Ireland", "lat": 53.4264, "lng": -6.2499},
  {"iata": "ZRH", "name": "Zurich Airport", "city": "Zurich", "country": "Switzerland", "lat": 47.4647, "lng": 8.5492},
  {"iata": "VIE", "name": "Vienna International Airport", "city": "Vienna", "country": "Austria", "lat": 48.1103, "lng": 16.5697},
  {"iata": "CPH", "name": "Copenhagen Airport", "city": "Copenhagen", "country": "Denmark", "lat": 55.6180, "lng": 12.6560},
  {"iata": "OSL", "name": "Oslo Gardermoen Airport", "city": "Oslo", "country": "Norway", "lat": 60.1976, "lng": 11.1004},
  {"iata": "ARN", "name": "Stockholm Arlanda Airport", "city": "Stockholm", "country": "Sweden", "lat": 59.6498, "lng": 17.9238},
  {"iata": "HEL", "name": "Helsinki-Vantaa Airport", "city": "Helsinki", "country": "Finland", "lat": 60.3172, "lng": 24.9633},
  {"iata": "BRU", "name": "Brussels Airport", "city": "Brussels", "country": "Belgium", "lat": 50.9014, "lng": 4.4844},
  {"iata": "LIS", "name": "Lisbon Portela Airport", "city": "Lisbon", "country": "Portugal", "lat": 38.7742, "lng": -9.1342},
  {"iata": "MXP", "name": "Milan Malpensa Airport", "city": "Milan", "country": "Italy", "lat": 45.6306, "lng": 8.7281},
  {"iata": "ATH", "name": "Athens International Airport", "city": "Athens", "country": "Greece", "lat": 37.9364, "lng": 23.9445},
  {"iata": "WAW", "name": "Warsaw Chopin Airport", "city": "Warsaw", "country": "Poland", "lat": 52.1657, "lng": 20.9671},
  {"iata": "PRG", "name": "Václav Havel Airport Prague", "city": "Prague", "country": "Czech Republic", "lat": 50.1008, "lng": 14.2600},
  {"iata": "BUD", "name": "Budapest Ferenc Liszt International Airport", "city": "Budapest", "country": "Hungary", "lat": 47.4298, "lng": 19.2611},
  {"iata": "OTP", "name": "Henri Coandă International Airport", "city": "Bucharest", "country": "Romania", "lat": 44.5711, "lng": 26.0850},
  {"iata": "SVO", "name": "Sheremetyevo International Airport", "city": "Moscow", "country": "Russia", "lat": 55.9726, "lng": 37.4146},
  {"iata": "DME", "name": "Domodedovo International Airport", "city": "Moscow", "country": "Russia", "lat": 55.4088, "lng": 37.9063},
  {"iata": "LED", "name": "Pulkovo Airport", "city": "St. Petersburg", "country": "Russia", "lat": 59.8003, "lng": 30.2625},
  {"iata": "MNL", "name": "Ninoy Aquino International Airport", "city": "Manila", "country": "Philippines", "lat": 14.5086, "lng": 121.0194},
  {"iata": "CGK", "name": "Soekarno-Hatta International Airport", "city": "Jakarta", "country": "Indonesia", "lat": -6.1256, "lng": 106.6559},
  {"iata": "DPS", "name": "Ngurah Rai International Airport", "city": "Bali", "country": "Indonesia", "lat": -8.7467, "lng": 115.1672},
  {"iata": "SGN", "name": "Tan Son Nhat International Airport", "city": "Ho Chi Minh City", "country": "Vietnam", "lat": 10.8188, "lng": 106.6520},
  {"iata": "HAN", "name": "Noi Bai International Airport", "city": "Hanoi", "country": "Vietnam", "lat": 21.2187, "lng": 105.8072},
  {"iata": "TPE", "name": "Taiwan Taoyuan International Airport", "city": "Taipei", "country": "Taiwan", "lat": 25.0797, "lng": 121.2342},
  {"iata": "PNH", "name": "Phnom Penh International Airport", "city": "Phnom Penh", "country": "Cambodia", "lat": 11.5466, "lng": 104.8442},
  {"iata": "REP", "name": "Siem Reap International Airport", "city": "Siem Reap", "country": "Cambodia", "lat": 13.4107, "lng": 103.8128},
  {"iata": "RGN", "name": "Yangon International Airport", "city": "Yangon", "country": "Myanmar", "lat": 16.9073, "lng": 96.1332},
  {"iata": "CMB", "name": "Bandaranaike International Airport", "city": "Colombo", "country": "Sri Lanka", "lat": 7.1808, "lng": 79.8841},
  {"iata": "MLE", "name": "Velana International Airport", "city": "Malé", "country": "Maldives", "lat": 4.1918, "lng": 73.5290},
  {"iata": "KTM", "name": "Tribhuvan International Airport", "city": "Kathmandu", "country": "Nepal", "lat": 27.6966, "lng": 85.3591},
  {"iata": "DAC", "name": "Hazrat Shahjalal International Airport", "city": "Dhaka", "country": "Bangladesh", "lat": 23.8433, "lng": 90.3978},
  {"iata": "ISB", "name": "Islamabad International Airport", "city": "Islamabad", "country": "Pakistan", "lat": 33.5605, "lng": 72.8526},
  {"iata": "KHI", "name": "Jinnah International Airport", "city": "Karachi", "country": "Pakistan", "lat": 24.9065, "lng": 67.1609},
  {"iata": "LHE", "name": "Allama Iqbal International Airport", "city": "Lahore", "country": "Pakistan", "lat": 31.5216, "lng": 74.4036},
  {"iata": "PER", "name": "Perth Airport", "city": "Perth", "country": "Australia", "lat": -31.9403, "lng": 115.9672},
  {"iata": "ADL", "name": "Adelaide Airport", "city": "Adelaide", "country": "Australia", "lat": -34.9450, "lng": 138.5306},
  {"iata": "WLG", "name": "Wellington International Airport", "city": "Wellington", "country": "New Zealand", "lat": -41.3272, "lng": 174.8050},
  {"iata": "CHC", "name": "Christchurch International Airport", "city": "Christchurch", "country": "New Zealand", "lat": -43.4894, "lng": 172.5369},
  {"iata": "NAN", "name": "Nadi International Airport", "city": "Nadi", "country": "Fiji", "lat": -17.7553, "lng": 177.4431},
  {"iata": "PPT", "name": "Faa'a International Airport", "city": "Papeete", "country": "French Polynesia", "lat": -17.5537, "lng": -149.6071},
  {"iata": "SJU", "name": "Luis Muñoz Marín International Airport", "city": "San Juan", "country": "Puerto Rico", "lat": 18.4394, "lng": -66.0018},
  {"iata": "NAS", "name": "Lynden Pindling International Airport", "city": "Nassau", "country": "Bahamas", "lat": 25.0390, "lng": -77.4662},
  {"iata": "MBJ", "name": "Sangster International Airport", "city": "Montego Bay", "country": "Jamaica", "lat": 18.5037, "lng": -77.9134},
  {"iata": "KIN", "name": "Norman Manley International Airport", "city": "Kingston", "country": "Jamaica", "lat": 17.9357, "lng": -76.7875},
  {"iata": "PUJ", "name": "Punta Cana International Airport", "city": "Punta Cana", "country": "Dominican Republic", "lat": 18.5674, "lng": -68.3634},
  {"iata": "SDQ", "name": "Las Américas International Airport", "city": "Santo Domingo", "country": "Dominican Republic", "lat": 18.4297, "lng": -69.6689},
  {"iata": "HAV", "name": "José Martí International Airport", "city": "Havana", "country": "Cuba", "lat": 22.9892, "lng": -82.4091},
  {"iata": "GDL", "name": "Miguel Hidalgo y Costilla International Airport", "city": "Guadalajara", "country": "Mexico", "lat": 20.5218, "lng": -103.3111},
  {"iata": "MTY", "name": "Monterrey International Airport", "city": "Monterrey", "country": "Mexico", "lat": 25.7785, "lng": -100.1069},
  {"iata": "SJO", "name": "Juan Santamaría International Airport", "city": "San José", "country": "Costa Rica", "lat": 9.9939, "lng": -84.2088},
  {"iata": "PTY", "name": "Tocumen International Airport", "city": "Panama City", "country": "Panama", "lat": 9.0714, "lng": -79.3835},
  {"iata": "UIO", "name": "Mariscal Sucre International Airport", "city": "Quito", "country": "Ecuador", "lat": -0.1292, "lng": -78.3575},
  {"iata": "CCS", "name": "Simón Bolívar International Airport", "city": "Caracas", "country": "Venezuela", "lat": 10.6012, "lng": -66.9912},
  {"iata": "MVD", "name": "Carrasco International Airport", "city": "Montevideo", "country": "Uruguay", "lat": -34.8384, "lng": -56.0308},
  {"iata": "ASU", "name": "Silvio Pettirossi International Airport", "city": "Asunción", "country": "Paraguay", "lat": -25.2400, "lng": -57.5200},
  {"iata": "VVI", "name": "Viru Viru International Airport", "city": "Santa Cruz", "country": "Bolivia", "lat": -17.6448, "lng": -63.1354},
  {"iata": "LPB", "name": "El Alto International Airport", "city": "La Paz", "country": "Bolivia", "lat": -16.5133, "lng": -68.1922},
  {"iata": "MDE", "name": "José María Córdova International Airport", "city": "Medellín", "country": "Colombia", "lat": 6.1645, "lng": -75.4231},
  {"iata": "CTG", "name": "Rafael Núñez International Airport", "city": "Cartagena", "country": "Colombia", "lat": 10.4424, "lng": -75.5130},
  {"iata": "LAS", "name": "Harry Reid International Airport", "city": "Las Vegas", "country": "United States", "lat": 36.0840, "lng": -115.1537},
  {"iata": "OGG", "name": "Kahului Airport", "city": "Maui", "country": "United States", "lat": 20.8986, "lng": -156.4305},
  {"iata": "SJC", "name": "San José International Airport", "city": "San Jose", "country": "United States", "lat": 37.3626, "lng": -121.9291},
  {"iata": "OAK", "name": "Oakland International Airport", "city": "Oakland", "country": "United States", "lat": 37.7213, "lng": -122.2208},
  {"iata": "SMF", "name": "Sacramento International Airport", "city": "Sacramento", "country": "United States", "lat": 38.6954, "lng": -121.5908},
  {"iata": "SNA", "name": "John Wayne Airport", "city": "Orange County", "country": "United States", "lat": 33.6757, "lng": -117.8682},
  {"iata": "BUR", "name": "Hollywood Burbank Airport", "city": "Burbank", "country": "United States", "lat": 34.2007, "lng": -118.3585},
  {"iata": "ONT", "name": "Ontario International Airport", "city": "Ontario", "country": "United States", "lat": 34.0560, "lng": -117.6012},
  {"iata": "PSP", "name": "Palm Springs International Airport", "city": "Palm Springs", "country": "United States", "lat": 33.8297, "lng": -116.5067},
  {"iata": "SBA", "name": "Santa Barbara Airport", "city": "Santa Barbara", "country": "United States", "lat": 34.4262, "lng": -119.8401},
  {"iata": "FAT", "name": "Fresno Yosemite International Airport", "city": "Fresno", "country": "United States", "lat": 36.7762, "lng": -119.7181},
  {"iata": "RNO", "name": "Reno-Tahoe International Airport", "city": "Reno", "country": "United States", "lat": 39.4991, "lng": -119.7681},
  {"iata": "ABQ", "name": "Albuquerque International Sunport", "city": "Albuquerque", "country": "United States", "lat": 35.0402, "lng": -106.6090},
  {"iata": "ELP", "name": "El Paso International Airport", "city": "El Paso", "country": "United States", "lat": 31.8072, "lng": -106.3776},
  {"iata": "TUS", "name": "Tucson International Airport", "city": "Tucson", "country": "United States", "lat": 32.1161, "lng": -110.9410},
  {"iata": "SAT", "name": "San Antonio International Airport", "city": "San Antonio", "country": "United States", "lat": 29.5337, "lng": -98.4698},
  {"iata": "HOU", "name": "William P. Hobby Airport", "city": "Houston", "country": "United States", "lat": 29.6454, "lng": -95.2789},
  {"iata": "DAL", "name": "Dallas Love Field", "city": "Dallas", "country": "United States", "lat": 32.8471, "lng": -96.8518},
  {"iata": "OKC", "name": "Will Rogers World Airport", "city": "Oklahoma City", "country": "United States", "lat": 35.3931, "lng": -97.6007},
  {"iata": "TUL", "name": "Tulsa International Airport", "city": "Tulsa", "country": "United States", "lat": 36.1984, "lng": -95.8881},
  {"iata": "MSY", "name": "Louis Armstrong New Orleans International Airport", "city": "New Orleans", "country": "United States", "lat": 29.9934, "lng": -90.2580},
  {"iata": "JAX", "name": "Jacksonville International Airport", "city": "Jacksonville", "country": "United States", "lat": 30.4941, "lng": -81.6879},
  {"iata": "RSW", "name": "Southwest Florida International Airport", "city": "Fort Myers", "country": "United States", "lat": 26.5362, "lng": -81.7552},
  {"iata": "PBI", "name": "Palm Beach International Airport", "city": "West Palm Beach", "country": "United States", "lat": 26.6832, "lng": -80.0956},
  {"iata": "SRQ", "name": "Sarasota-Bradenton International Airport", "city": "Sarasota", "country": "United States", "lat": 27.3954, "lng": -82.5544},
  {"iata": "PIE", "name": "St. Pete-Clearwater International Airport", "city": "St. Petersburg", "country": "United States", "lat": 27.9102, "lng": -82.6874},
  {"iata": "CVG", "name": "Cincinnati/Northern Kentucky International Airport", "city": "Cincinnati", "country": "United States", "lat": 39.0489, "lng": -84.6678},
  {"iata": "CMH", "name": "John Glenn Columbus International Airport", "city": "Columbus", "country": "United States", "lat": 39.9980, "lng": -82.8919},
  {"iata": "CLE", "name": "Cleveland Hopkins International Airport", "city": "Cleveland", "country": "United States", "lat": 41.4117, "lng": -81.8498},
  {"iata": "IND", "name": "Indianapolis International Airport", "city": "Indianapolis", "country": "United States", "lat": 39.7173, "lng": -86.2944},
  {"iata": "PIT", "name": "Pittsburgh International Airport", "city": "Pittsburgh", "country": "United States", "lat": 40.4915, "lng": -80.2329},
  {"iata": "SDF", "name": "Louisville International Airport", "city": "Louisville", "country": "United States", "lat": 38.1744, "lng": -85.7360},
  {"iata": "MKE", "name": "General Mitchell International Airport", "city": "Milwaukee", "country": "United States", "lat": 42.9472, "lng": -87.8966},
  {"iata": "MDW", "name": "Chicago Midway International Airport", "city": "Chicago", "country": "United States", "lat": 41.7868, "lng": -87.7522},
  {"iata": "DSM", "name": "Des Moines International Airport", "city": "Des Moines", "country": "United States", "lat": 41.5340, "lng": -93.6631},
  {"iata": "OMA", "name": "Eppley Airfield", "city": "Omaha", "country": "United States", "lat": 41.3032, "lng": -95.8941},
  {"iata": "ICT", "name": "Wichita Dwight D. Eisenhower National Airport", "city": "Wichita", "country": "United States", "lat": 37.6499, "lng": -97.4331},
  {"iata": "LIT", "name": "Clinton National Airport", "city": "Little Rock", "country": "United States", "lat": 34.7294, "lng": -92.2243},
  {"iata": "MEM", "name": "Memphis International Airport", "city": "Memphis", "country": "United States", "lat": 35.0424, "lng": -89.9767},
  {"iata": "BHM", "name": "Birmingham-Shuttlesworth International Airport", "city": "Birmingham", "country": "United States", "lat": 33.5629, "lng": -86.7535},
  {"iata": "ATW", "name": "Appleton International Airport", "city": "Appleton", "country": "United States", "lat": 44.2581, "lng": -88.5191},
  {"iata": "GSP", "name": "Greenville-Spartanburg International Airport", "city": "Greenville", "country": "United States", "lat": 34.8957, "lng": -82.2189},
  {"iata": "CHS", "name": "Charleston International Airport", "city": "Charleston", "country": "United States", "lat": 32.8986, "lng": -80.0405},
  {"iata": "SAV", "name": "Savannah/Hilton Head International Airport", "city": "Savannah", "country": "United States", "lat": 32.1276, "lng": -81.2021},
  {"iata": "MYR", "name": "Myrtle Beach International Airport", "city": "Myrtle Beach", "country": "United States", "lat": 33.6797, "lng": -78.9283},
  {"iata": "ORF", "name": "Norfolk International Airport", "city": "Norfolk", "country": "United States", "lat": 36.8946, "lng": -76.2012},
  {"iata": "RIC", "name": "Richmond International Airport", "city": "Richmond", "country": "United States", "lat": 37.5052, "lng": -77.3197},
  {"iata": "BDL", "name": "Bradley International Airport", "city": "Hartford", "country": "United States", "lat": 41.9389, "lng": -72.6832},
  {"iata": "PVD", "name": "T.F. Green International Airport", "city": "Providence", "country": "United States", "lat": 41.7240, "lng": -71.4282},
  {"iata": "MHT", "name": "Manchester-Boston Regional Airport", "city": "Manchester", "country": "United States", "lat": 42.9326, "lng": -71.4357},
  {"iata": "PWM", "name": "Portland International Jetport", "city": "Portland", "country": "United States", "lat": 43.6462, "lng": -70.3093},
  {"iata": "BTV", "name": "Burlington International Airport", "city": "Burlington", "country": "United States", "lat": 44.4720, "lng": -73.1533},
  {"iata": "SYR", "name": "Syracuse Hancock International Airport", "city": "Syracuse", "country": "United States", "lat": 43.1112, "lng": -76.1063},
  {"iata": "ALB", "name": "Albany International Airport", "city": "Albany", "country": "United States", "lat": 42.7483, "lng": -73.8017},
  {"iata": "ROC", "name": "Greater Rochester International Airport", "city": "Rochester", "country": "United States", "lat": 43.1189, "lng": -77.6724},
  {"iata": "BUF", "name": "Buffalo Niagara International Airport", "city": "Buffalo", "country": "United States", "lat": 42.9405, "lng": -78.7322},
  {"iata": "YYZ", "name": "Toronto Pearson International Airport", "city": "Toronto", "country": "Canada", "lat": 43.6777, "lng": -79.6248},
  {"iata": "YVR", "name": "Vancouver International Airport", "city": "Vancouver", "country": "Canada", "lat": 49.1967, "lng": -123.1815},
  {"iata": "YUL", "name": "Montréal-Trudeau International Airport", "city": "Montreal", "country": "Canada", "lat": 45.4706, "lng": -73.7408},
  {"iata": "YYC", "name": "Calgary International Airport", "city": "Calgary", "country": "Canada", "lat": 51.1225, "lng": -114.0133},
  {"iata": "YEG", "name": "Edmonton International Airport", "city": "Edmonton", "country": "Canada", "lat": 53.3097, "lng": -113.5800},
  {"iata": "YOW", "name": "Ottawa Macdonald-Cartier International Airport", "city": "Ottawa", "country": "Canada", "lat": 45.3225, "lng": -75.6692},
  {"iata": "YWG", "name": "Winnipeg James Armstrong Richardson International Airport", "city": "Winnipeg", "country": "Canada", "lat": 49.9100, "lng": -97.2399},
  {"iata": "YHZ", "name": "Halifax Stanfield International Airport", "city": "Halifax", "country": "Canada", "lat": 44.8808, "lng": -63.5086},
  {"iata": "YQB", "name": "Québec City Jean Lesage International Airport", "city": "Quebec City", "country": "Canada", "lat": 46.7911, "lng": -71.3933},
  {"iata": "NCE", "name": "Nice Côte d'Azur Airport", "city": "Nice", "country": "France", "lat": 43.6584, "lng": 7.2159},
  {"iata": "LYS", "name": "Lyon–Saint-Exupéry Airport", "city": "Lyon", "country": "France", "lat": 45.7256, "lng": 5.0811},
  {"iata": "MRS", "name": "Marseille Provence Airport", "city": "Marseille", "country": "France", "lat": 43.4393, "lng": 5.2214},
  {"iata": "TLS", "name": "Toulouse-Blagnac Airport", "city": "Toulouse", "country": "France", "lat": 43.6291, "lng": 1.3678},
  {"iata": "ORY", "name": "Paris Orly Airport", "city": "Paris", "country": "France", "lat": 48.7233, "lng": 2.3794},
  {"iata": "DUS", "name": "Düsseldorf Airport", "city": "Düsseldorf", "country": "Germany", "lat": 51.2895, "lng": 6.7668},
  {"iata": "HAM", "name": "Hamburg Airport", "city": "Hamburg", "country": "Germany", "lat": 53.6304, "lng": 10.0063},
  {"iata": "STR", "name": "Stuttgart Airport", "city": "Stuttgart", "country": "Germany", "lat": 48.6899, "lng": 9.2220},
  {"iata": "CGN", "name": "Cologne Bonn Airport", "city": "Cologne", "country": "Germany", "lat": 50.8659, "lng": 7.1427},
  {"iata": "TXL", "name": "Berlin Tegel Airport", "city": "Berlin", "country": "Germany", "lat": 52.5597, "lng": 13.2877},
  {"iata": "BER", "name": "Berlin Brandenburg Airport", "city": "Berlin", "country": "Germany", "lat": 52.3667, "lng": 13.5033},
  {"iata": "AGP", "name": "Málaga Airport", "city": "Málaga", "country": "Spain", "lat": 36.6749, "lng": -4.4991},
  {"iata": "PMI", "name": "Palma de Mallorca Airport", "city": "Palma de Mallorca", "country": "Spain", "lat": 39.5517, "lng": 2.7388},
  {"iata": "ALC", "name": "Alicante-Elche Airport", "city": "Alicante", "country": "Spain", "lat": 38.2822, "lng": -0.5582},
  {"iata": "VLC", "name": "Valencia Airport", "city": "Valencia", "country": "Spain", "lat": 39.4893, "lng": -0.4816},
  {"iata": "SVQ", "name": "Seville Airport", "city": "Seville", "country": "Spain", "lat": 37.4180, "lng": -5.8931},
  {"iata": "TFS", "name": "Tenerife South Airport", "city": "Tenerife", "country": "Spain", "lat": 28.0445, "lng": -16.5725},
  {"iata": "LPA", "name": "Gran Canaria Airport", "city": "Gran Canaria", "country": "Spain", "lat": 27.9319, "lng": -15.3866},
  {"iata": "IBZ", "name": "Ibiza Airport", "city": "Ibiza", "country": "Spain", "lat": 38.8729, "lng": 1.3731},
  {"iata": "VCE", "name": "Venice Marco Polo Airport", "city": "Venice", "country": "Italy", "lat": 45.5053, "lng": 12.3519},
  {"iata": "NAP", "name": "Naples International Airport", "city": "Naples", "country": "Italy", "lat": 40.8860, "lng": 14.2908},
  {"iata": "PSA", "name": "Pisa International Airport", "city": "Pisa", "country": "Italy", "lat": 43.6839, "lng": 10.3927},
  {"iata": "CTA", "name": "Catania-Fontanarossa Airport", "city": "Catania", "country": "Italy", "lat": 37.4668, "lng": 15.0664},
  {"iata": "PMO", "name": "Falcone-Borsellino Airport", "city": "Palermo", "country": "Italy", "lat": 38.1760, "lng": 13.0910},
  {"iata": "BGY", "name": "Milan Bergamo Airport", "city": "Milan", "country": "Italy", "lat": 45.6739, "lng": 9.7042},
  {"iata": "LIN", "name": "Milan Linate Airport", "city": "Milan", "country": "Italy", "lat": 45.4454, "lng": 9.2778},
  {"iata": "MAN", "name": "Manchester Airport", "city": "Manchester", "country": "United Kingdom", "lat": 53.3537, "lng": -2.2750},
  {"iata": "EDI", "name": "Edinburgh Airport", "city": "Edinburgh", "country": "United Kingdom", "lat": 55.9500, "lng": -3.3725},
  {"iata": "BHX", "name": "Birmingham Airport", "city": "Birmingham", "country": "United Kingdom", "lat": 52.4539, "lng": -1.7480},
  {"iata": "GLA", "name": "Glasgow Airport", "city": "Glasgow", "country": "United Kingdom", "lat": 55.8719, "lng": -4.4331},
  {"iata": "STN", "name": "London Stansted Airport", "city": "London", "country": "United Kingdom", "lat": 51.8850, "lng": 0.2350},
  {"iata": "LTN", "name": "London Luton Airport", "city": "London", "country": "United Kingdom", "lat": 51.8747, "lng": -0.3683},
  {"iata": "BFS", "name": "Belfast International Airport", "city": "Belfast", "country": "United Kingdom", "lat": 54.6575, "lng": -6.2158},
  {"iata": "NCL", "name": "Newcastle International Airport", "city": "Newcastle", "country": "United Kingdom", "lat": 55.0375, "lng": -1.6917},
  {"iata": "BRS", "name": "Bristol Airport", "city": "Bristol", "country": "United Kingdom", "lat": 51.3827, "lng": -2.7191},
  {"iata": "LBA", "name": "Leeds Bradford Airport", "city": "Leeds", "country": "United Kingdom", "lat": 53.8659, "lng": -1.6606},
  {"iata": "EMA", "name": "East Midlands Airport", "city": "East Midlands", "country": "United Kingdom", "lat": 52.8311, "lng": -1.3281},
  {"iata": "ANC", "name": "Ted Stevens Anchorage International Airport", "city": "Anchorage", "country": "United States", "lat": 61.1743, "lng": -149.9962},
  {"iata": "FAI", "name": "Fairbanks International Airport", "city": "Fairbanks", "country": "United States", "lat": 64.8151, "lng": -147.8561},
  {"iata": "JNU", "name": "Juneau International Airport", "city": "Juneau", "country": "United States", "lat": 58.3549, "lng": -134.5762}
]
